~Version Information
VERS.   2.0 :CWLS LOG ASCII STANDARD
WRAP.   NO  :ONE LINE PER DEPTH STEP
~Well Information
STRT.M       0.0  :START
STOP.M     380.0  :STOP
STEP.M       4.0  :STEP
NULL.    -999.25 :NULL
WELL.    Well-A :WELL NAME
~Curve Information
DEPT.M  :TIME (treated as ms by eggseis time-domain wells)
GR.GAPI :GAMMA RAY
RHOB.G/CC :BULK DENSITY
~ASCII
   0.00   55.00   2.420
   4.00   59.00   2.385
   8.00   63.00   2.430
  12.00   67.00   2.395
  16.00   71.00   2.440
  20.00   75.00   2.405
  24.00   79.00   2.450
  28.00   55.00   2.415
  32.00   60.50   2.460
  36.00   64.50   2.425
  40.00   68.50   2.470
  44.00   72.50   2.435
  48.00   76.50   2.480
  52.00   80.50   2.445
  56.00   56.50   2.490
  60.00   60.50   2.455
  64.00   66.00   2.500
  68.00   70.00   2.465
  72.00   74.00   2.510
  76.00   78.00   2.475
  80.00   82.00   2.520
  84.00   58.00   2.485
  88.00   62.00   2.530
  92.00   66.00   2.495
  96.00   71.50   2.540
 100.00   75.50   2.505
 104.00   79.50   2.550
 108.00   83.50   2.515
 112.00   59.50   2.560
 116.00   63.50   2.525
 120.00   67.50   2.570
 124.00   71.50   2.535
 128.00   77.00   2.580
 132.00   81.00   2.545
 136.00   85.00   2.590
 140.00   61.00   2.555
 144.00   65.00   2.600
 148.00   69.00   2.565
 152.00   73.00   2.610
 156.00   77.00   2.575
 160.00   82.50   2.620
 164.00   86.50   2.585
 168.00   62.50   2.630
 172.00   66.50   2.595
 176.00   70.50   2.640
 180.00   74.50   2.605
 184.00   78.50   2.650
 188.00   82.50   2.615
 192.00   88.00   2.660
 196.00   64.00   2.625
 200.00   68.00   2.670
 204.00   72.00   2.635
 208.00   76.00   2.680
 212.00   80.00   2.645
 216.00   84.00   2.690
 220.00   88.00   2.655
 224.00   65.50   2.700
 228.00   69.50   2.665
 232.00   73.50   2.710
 236.00   77.50   2.675
 240.00   81.50   2.720
 244.00   85.50   2.685
 248.00   89.50   2.730
 252.00   65.50   2.695
 256.00   71.00   2.740
 260.00   75.00   2.705
 264.00   79.00   2.750
 268.00   83.00   2.715
 272.00   87.00   2.760
 276.00   91.00   2.725
 280.00   67.00   2.770
 284.00   71.00   2.735
 288.00   76.50   2.780
 292.00   80.50   2.745
 296.00   84.50   2.790
 300.00   88.50   2.755
 304.00   92.50   2.800
 308.00   68.50   2.765
 312.00   72.50   2.810
 316.00   76.50   2.775
 320.00   82.00   2.820
 324.00   86.00   2.785
 328.00   90.00   2.830
 332.00   94.00   2.795
 336.00   70.00   2.840
 340.00   74.00   2.805
 344.00   78.00   2.850
 348.00   82.00   2.815
 352.00   87.50   2.860
 356.00   91.50   2.825
 360.00   95.50   2.870
 364.00   71.50   2.835
 368.00   75.50   2.880
 372.00   79.50   2.845
 376.00   83.50   2.890
 380.00   87.50   2.855
